{"type": "FeatureCollection", "features": [{"type": "Feature", "geometry": {"type": "Point", "coordinates": [137.138387, 36.591197]}, "properties": {"stop_id": "1_1", "stop_name": "八尾駅", "route_ids": ["10", "11", "3", "5", "6", "7", "8", "9"]}}, {"type": "Feature", "geometry": {"type": "Point", "coordinates": [137.139331, 36.58983]}, "properties": {"stop_id": "2_1", "stop_name": "公民館前", "route_ids": ["10", "11", "5", "7", "8", "9"]}}, {"type": "Feature", "geometry": {"type": "Point", "coordinates": [137.140515, 36.588501]}, "properties": {"stop_id": "3_1", "stop_name": "福島第一", "route_ids": ["10", "11", "5", "7", "8", "9"]}}, {"type": "Feature", "geometry": {"type": "Point", "coordinates": [137.140737, 36.585106]}, "properties": {"stop_id": "4_1", "stop_name": "八尾行政サービスセンター前", "route_ids": ["1", "10", "11", "4", "5", "7", "8", "9"]}}, {"type": "Feature", "geometry": {"type": "Point", "coordinates": [137.138069, 36.582631]}, "properties": {"stop_id": "5_1", "stop_name": "健康福祉総合センター前", "route_ids": ["1", "5"]}}, {"type": "Feature", "geometry": {"type": "Point", "coordinates": [137.13471, 36.592035]}, "properties": {"stop_id": "6_1", "stop_name": "天の平", "route_ids": ["4", "5"]}}, {"type": "Feature", "geometry": {"type": "Point", "coordinates": [137.13305, 36.600103]}, "properties": {"stop_id": "7_1", "stop_name": "望岳台", "route_ids": ["4", "5", "6"]}}, {"type": "Feature", "geometry": {"type": "Point", "coordinates": [137.131901, 36.605543]}, "properties": {"stop_id": "8_1", "stop_name": "保内公民館前", "route_ids": ["4", "5"]}}, {"type": "Feature", "geometry": {"type": "Point", "coordinates": [137.143895, 36.600747]}, "properties": {"stop_id": "9_1", "stop_name": "八尾コミュニティセンター前", "route_ids": ["5"]}}, {"type": "Feature", "geometry": {"type": "Point", "coordinates": [137.144973, 36.590344]}, "properties": {"stop_id": "10_1", "stop_name": "上井田", "route_ids": ["1"]}}, {"type": "Feature", "geometry": {"type": "Point", "coordinates": [137.14318, 36.584834]}, "properties": {"stop_id": "11_1", "stop_name": "久婦須橋", "route_ids": ["1", "9"]}}, {"type": "Feature", "geometry": {"type": "Point", "coordinates": [137.138975, 36.580769]}, "properties": {"stop_id": "12_1", "stop_name": "聞名寺下", "route_ids": ["1", "10", "11", "4", "7", "8"]}}, {"type": "Feature", "geometry": {"type": "Point", "coordinates": [137.138025, 36.579202]}, "properties": {"stop_id": "13_1", "stop_name": "聞名寺前", "route_ids": ["1", "10", "11", "4", "7", "8"]}}, {"type": "Feature", "geometry": {"type": "Point", "coordinates": [137.137782, 36.578543]}, "properties": {"stop_id": "14_1", "stop_name": "八尾ふらっと館前", "route_ids": ["1", "10", "11", "4", "7", "8"]}}, {"type": "Feature", "geometry": {"type": "Point", "coordinates": [137.135819, 36.576834]}, "properties": {"stop_id": "15_1", "stop_name": "おわら資料館前", "route_ids": ["11", "4"]}}, {"type": "Feature", "geometry": {"type": "Point", "coordinates": [137.136139, 36.573183]}, "properties": {"stop_id": "16_1", "stop_name": "梅苑町公民館前", "route_ids": ["4"]}}, {"type": "Feature", "geometry": {"type": "Point", "coordinates": [137.134585, 36.576737]}, "properties": {"stop_id": "17_1", "stop_name": "鏡町", "route_ids": ["1", "10", "11", "4", "7", "8"]}}, {"type": "Feature", "geometry": {"type": "Point", "coordinates": [137.131325, 36.575563]}, "properties": {"stop_id": "18_1", "stop_name": "曳山展示館前", "route_ids": ["1", "10", "7", "8"]}}, {"type": "Feature", "geometry": {"type": "Point", "coordinates": [137.128928, 36.574665]}, "properties": {"stop_id": "19_1", "stop_name": "西新町", "route_ids": ["1", "10", "4", "7", "8"]}}, {"type": "Feature", "geometry": {"type": "Point", "coordinates": [137.127828, 36.574586]}, "properties": {"stop_id": "20_1", "stop_name": "西新町口", "route_ids": ["1", "10", "4", "7", "8"]}}, {"type": "Feature", "geometry": {"type": "Point", "coordinates": [137.132226, 36.577283]}, "properties": {"stop_id": "21_1", "stop_name": "上新町口", "route_ids": ["1", "4"]}}, {"type": "Feature", "geometry": {"type": "Point", "coordinates": [137.135882, 36.57815]}, "properties": {"stop_id": "22_1", "stop_name": "横町", "route_ids": ["1", "10", "11", "7", "8"]}}, {"type": "Feature", "geometry": {"type": "Point", "coordinates": [137.137652, 36.579351]}, "properties": {"stop_id": "23_1", "stop_name": "今町", "route_ids": ["1", "10", "11", "7", "8"]}}, {"type": "Feature", "geometry": {"type": "Point", "coordinates": [137.137044, 36.576406]}, "properties": {"stop_id": "24_1", "stop_name": "八尾小学校前", "route_ids": ["10", "11", "7", "8"]}}, {"type": "Feature", "geometry": {"type": "Point", "coordinates": [137.135123, 36.570156]}, "properties": {"stop_id": "25_1", "stop_name": "角間公民館前", "route_ids": ["11"]}}, {"type": "Feature", "geometry": {"type": "Point", "coordinates": [137.140913, 36.546002]}, "properties": {"stop_id": "26_1", "stop_name": "梅谷橋", "route_ids": ["11"]}}, {"type": "Feature", "geometry": {"type": "Point", "coordinates": [137.149951, 36.549099]}, "properties": {"stop_id": "27_1", "stop_name": "上笹原公民館前", "route_ids": ["11"]}}, {"type": "Feature", "geometry": {"type": "Point", "coordinates": [137.157662, 36.555791]}, "properties": {"stop_id": "28_1", "stop_name": "掛畑", "route_ids": ["11"]}}, {"type": "Feature", "geometry": {"type": "Point", "coordinates": [137.158227, 36.547913]}, "properties": {"stop_id": "29_1", "stop_name": "上掛畑", "route_ids": ["11"]}}, {"type": "Feature", "geometry": {"type": "Point", "coordinates": [137.159509, 36.543255]}, "properties": {"stop_id": "30_1", "stop_name": "上黒瀬", "route_ids": ["11"]}}, {"type": "Feature", "geometry": {"type": "Point", "coordinates": [137.180154, 36.524276]}, "properties": {"stop_id": "31_1", "stop_name": "桐谷口", "route_ids": ["11"]}}, {"type": "Feature", "geometry": {"type": "Point", "coordinates": [137.181839, 36.521596]}, "properties": {"stop_id": "32_1", "stop_name": "桐谷", "route_ids": ["11"]}}, {"type": "Feature", "geometry": {"type": "Point", "coordinates": [137.162967, 36.601131]}, "properties": {"stop_id": "33_1", "stop_name": "杉原公民館前", "route_ids": ["2", "4"]}}, {"type": "Feature", "geometry": {"type": "Point", "coordinates": [137.161929, 36.604632]}, "properties": {"stop_id": "34_1", "stop_name": "大杉公民館前", "route_ids": ["2"]}}, {"type": "Feature", "geometry": {"type": "Point", "coordinates": [137.159321, 36.609144]}, "properties": {"stop_id": "35_1", "stop_name": "大杉", "route_ids": ["2"]}}, {"type": "Feature", "geometry": {"type": "Point", "coordinates": [137.169293, 36.612073]}, "properties": {"stop_id": "36_1", "stop_name": "杉田会館前", "route_ids": ["2"]}}, {"type": "Feature", "geometry": {"type": "Point", "coordinates": [137.17458, 36.611571]}, "properties": {"stop_id": "37_1", "stop_name": "杉田東部公民館前", "route_ids": ["2"]}}, {"type": "Feature", "geometry": {"type": "Point", "coordinates": [137.175487, 36.602671]}, "properties": {"stop_id": "38_1", "stop_name": "薄島", "route_ids": ["2", "4"]}}, {"type": "Feature", "geometry": {"type": "Point", "coordinates": [137.159366, 36.595341]}, "properties": {"stop_id": "39_1", "stop_name": "深谷北部", "route_ids": ["2"]}}, {"type": "Feature", "geometry": {"type": "Point", "coordinates": [137.148022, 36.595122]}, "properties": {"stop_id": "40_1", "stop_name": "Aコープウインズ前", "route_ids": ["1", "2", "4", "5"]}}, {"type": "Feature", "geometry": {"type": "Point", "coordinates": [137.130685, 36.585403]}, "properties": {"stop_id": "41_1", "stop_name": "八尾高校前", "route_ids": ["2", "3"]}}, {"type": "Feature", "geometry": {"type": "Point", "coordinates": [137.149282, 36.581156]}, "properties": {"stop_id": "42_1", "stop_name": "小長谷", "route_ids": ["9"]}}, {"type": "Feature", "geometry": {"type": "Point", "coordinates": [137.151482, 36.579499]}, "properties": {"stop_id": "43_1", "stop_name": "小長谷南口", "route_ids": ["9"]}}, {"type": "Feature", "geometry": {"type": "Point", "coordinates": [137.152994, 36.577232]}, "properties": {"stop_id": "44_1", "stop_name": "下新村口", "route_ids": ["9"]}}, {"type": "Feature", "geometry": {"type": "Point", "coordinates": [137.158148, 36.57098]}, "properties": {"stop_id": "45_1", "stop_name": "旧樫尾小学校前", "route_ids": ["9"]}}, {"type": "Feature", "geometry": {"type": "Point", "coordinates": [137.159351, 36.567896]}, "properties": {"stop_id": "46_1", "stop_name": "樫尾", "route_ids": ["9"]}}, {"type": "Feature", "geometry": {"type": "Point", "coordinates": [137.161542, 36.564032]}, "properties": {"stop_id": "47_1", "stop_name": "岩屋", "route_ids": ["9"]}}, {"type": "Feature", "geometry": {"type": "Point", "coordinates": [137.160038, 36.555777]}, "properties": {"stop_id": "48_1", "stop_name": "本法寺下", "route_ids": ["9"]}}, {"type": "Feature", "geometry": {"type": "Point", "coordinates": [137.125405, 36.57297]}, "properties": {"stop_id": "49_1", "stop_name": "高熊", "route_ids": ["7"]}}, {"type": "Feature", "geometry": {"type": "Point", "coordinates": [137.125748, 36.575263]}, "properties": {"stop_id": "50_1", "stop_name": "高熊ふれあいセンター前", "route_ids": ["7"]}}, {"type": "Feature", "geometry": {"type": "Point", "coordinates": [137.117423, 36.573091]}, "properties": {"stop_id": "51_1", "stop_name": "谷橋", "route_ids": ["7"]}}, {"type": "Feature", "geometry": {"type": "Point", "coordinates": [137.114443, 36.571959]}, "properties": {"stop_id": "52_1", "stop_name": "谷内", "route_ids": ["7"]}}, {"type": "Feature", "geometry": {"type": "Point", "coordinates": [137.110957, 36.571405]}, "properties": {"stop_id": "53_1", "stop_name": "室牧地区センター前", "route_ids": ["7"]}}, {"type": "Feature", "geometry": {"type": "Point", "coordinates": [137.108814, 36.570023]}, "properties": {"stop_id": "54_1", "stop_name": "中村", "route_ids": ["7"]}}, {"type": "Feature", "geometry": {"type": "Point", "coordinates": [137.106825, 36.566847]}, "properties": {"stop_id": "55_1", "stop_name": "上野", "route_ids": ["7"]}}, {"type": "Feature", "geometry": {"type": "Point", "coordinates": [137.104318, 36.565892]}, "properties": {"stop_id": "56_1", "stop_name": "柚木", "route_ids": ["7"]}}, {"type": "Feature", "geometry": {"type": "Point", "coordinates": [137.169805, 36.607759]}, "properties": {"stop_id": "58_1", "stop_name": "大開", "route_ids": ["4"]}}, {"type": "Feature", "geometry": {"type": "Point", "coordinates": [137.174704, 36.610889]}, "properties": {"stop_id": "59_1", "stop_name": "杉田東", "route_ids": ["4"]}}, {"type": "Feature", "geometry": {"type": "Point", "coordinates": [137.126891, 36.570492]}, "properties": {"stop_id": "67_1", "stop_name": "西葛坂", "route_ids": ["10", "8"]}}, {"type": "Feature", "geometry": {"type": "Point", "coordinates": [137.126501, 36.557635]}, "properties": {"stop_id": "68_1", "stop_name": "三和", "route_ids": ["10"]}}, {"type": "Feature", "geometry": {"type": "Point", "coordinates": [137.121545, 36.557103]}, "properties": {"stop_id": "69_1", "stop_name": "新名", "route_ids": ["10"]}}, {"type": "Feature", "geometry": {"type": "Point", "coordinates": [137.118764, 36.555026]}, "properties": {"stop_id": "70_1", "stop_name": "乗嶺", "route_ids": ["10"]}}, {"type": "Feature", "geometry": {"type": "Point", "coordinates": [137.112851, 36.543831]}, "properties": {"stop_id": "71_1", "stop_name": "下仁歩", "route_ids": ["10"]}}, {"type": "Feature", "geometry": {"type": "Point", "coordinates": [137.110483, 36.540624]}, "properties": {"stop_id": "72_1", "stop_name": "中仁歩", "route_ids": ["10"]}}, {"type": "Feature", "geometry": {"type": "Point", "coordinates": [137.110272, 36.537432]}, "properties": {"stop_id": "73_1", "stop_name": "上仁歩", "route_ids": ["10"]}}, {"type": "Feature", "geometry": {"type": "Point", "coordinates": [137.108233, 36.534246]}, "properties": {"stop_id": "74_1", "stop_name": "入谷", "route_ids": ["10"]}}, {"type": "Feature", "geometry": {"type": "Point", "coordinates": [137.090403, 36.530425]}, "properties": {"stop_id": "75_1", "stop_name": "正間", "route_ids": ["10"]}}, {"type": "Feature", "geometry": {"type": "Point", "coordinates": [137.064784, 36.505764]}, "properties": {"stop_id": "76_1", "stop_name": "川戸", "route_ids": ["10"]}}, {"type": "Feature", "geometry": {"type": "Point", "coordinates": [137.08544, 36.475681]}, "properties": {"stop_id": "77_1", "stop_name": "内名口", "route_ids": ["10"]}}, {"type": "Feature", "geometry": {"type": "Point", "coordinates": [137.085275, 36.47337]}, "properties": {"stop_id": "78_1", "stop_name": "内名", "route_ids": ["10"]}}, {"type": "Feature", "geometry": {"type": "Point", "coordinates": [137.084921, 36.463858]}, "properties": {"stop_id": "79_1", "stop_name": "田ノ頭", "route_ids": ["10"]}}, {"type": "Feature", "geometry": {"type": "Point", "coordinates": [137.084695, 36.456444]}, "properties": {"stop_id": "80_1", "stop_name": "西ヶ原", "route_ids": ["10"]}}, {"type": "Feature", "geometry": {"type": "Point", "coordinates": [137.083813, 36.448891]}, "properties": {"stop_id": "81_1", "stop_name": "東原", "route_ids": ["10"]}}, {"type": "Feature", "geometry": {"type": "Point", "coordinates": [137.08135, 36.436046]}, "properties": {"stop_id": "82_1", "stop_name": "庵谷", "route_ids": ["10"]}}, {"type": "Feature", "geometry": {"type": "Point", "coordinates": [137.08247, 36.433115]}, "properties": {"stop_id": "83_1", "stop_name": "大長谷温泉", "route_ids": ["10"]}}, {"type": "Feature", "geometry": {"type": "Point", "coordinates": [137.129201, 36.599937]}, "properties": {"stop_id": "84_1", "stop_name": "水谷", "route_ids": ["6"]}}, {"type": "Feature", "geometry": {"type": "Point", "coordinates": [137.122935, 36.593502]}, "properties": {"stop_id": "85_1", "stop_name": "SMK前", "route_ids": ["6"]}}, {"type": "Feature", "geometry": {"type": "Point", "coordinates": [137.120871, 36.589838]}, "properties": {"stop_id": "86_1", "stop_name": "団地センター前", "route_ids": ["6"]}}, {"type": "Feature", "geometry": {"type": "Point", "coordinates": [137.122601, 36.587905]}, "properties": {"stop_id": "87_1", "stop_name": "ユニゾン前", "route_ids": ["6"]}}, {"type": "Feature", "geometry": {"type": "Point", "coordinates": [137.124467, 36.586608]}, "properties": {"stop_id": "88_1", "stop_name": "富士通前", "route_ids": ["6"]}}, {"type": "Feature", "geometry": {"type": "Point", "coordinates": [137.126195, 36.586547]}, "properties": {"stop_id": "89_1", "stop_name": "団地東", "route_ids": ["6"]}}, {"type": "Feature", "geometry": {"type": "Point", "coordinates": [137.125631, 36.588728]}, "properties": {"stop_id": "90_1", "stop_name": "KOKUSAI ELECTRIC前", "route_ids": ["6"]}}, {"type": "Feature", "geometry": {"type": "Point", "coordinates": [137.130372, 36.605885]}, "properties": {"stop_id": "91_1", "stop_name": "上新田グリーンタウン公園前", "route_ids": ["4", "5"]}}, {"type": "Feature", "geometry": {"type": "Point", "coordinates": [137.128269, 36.612122]}, "properties": {"stop_id": "92_1", "stop_name": "中新田公民館前", "route_ids": ["4", "5"]}}, {"type": "Feature", "geometry": {"type": "Point", "coordinates": [137.123088, 36.614792]}, "properties": {"stop_id": "93_1", "stop_name": "下新田公民館下交差点", "route_ids": ["4", "5"]}}, {"type": "Feature", "geometry": {"type": "Point", "coordinates": [137.119177, 36.621909]}, "properties": {"stop_id": "94_1", "stop_name": "三田消防器具庫前", "route_ids": ["4", "5"]}}, {"type": "Feature", "geometry": {"type": "Point", "coordinates": [137.127344, 36.618827]}, "properties": {"stop_id": "95_1", "stop_name": "奥田", "route_ids": ["4", "5"]}}, {"type": "Feature", "geometry": {"type": "Point", "coordinates": [137.13653, 36.621361]}, "properties": {"stop_id": "96_1", "stop_name": "翠尾", "route_ids": ["4", "5"]}}, {"type": "Feature", "geometry": {"type": "Point", "coordinates": [137.140018, 36.620025]}, "properties": {"stop_id": "97_1", "stop_name": "田中（西円寺前）", "route_ids": ["4", "5"]}}, {"type": "Feature", "geometry": {"type": "Point", "coordinates": [137.137929, 36.616043]}, "properties": {"stop_id": "98_1", "stop_name": "本郷公民館前", "route_ids": ["4", "5"]}}, {"type": "Feature", "geometry": {"type": "Point", "coordinates": [137.137999, 36.610958]}, "properties": {"stop_id": "99_1", "stop_name": "高善寺（保内小学校前）", "route_ids": ["4", "5"]}}, {"type": "Feature", "geometry": {"type": "Point", "coordinates": [137.140408, 36.599251]}, "properties": {"stop_id": "100_1", "stop_name": "石戸", "route_ids": ["5"]}}, {"type": "Feature", "geometry": {"type": "Point", "coordinates": [137.128226, 36.55761]}, "properties": {"stop_id": "101_1", "stop_name": "道畑", "route_ids": ["8"]}}, {"type": "Feature", "geometry": {"type": "Point", "coordinates": [137.125863, 36.554081]}, "properties": {"stop_id": "102_1", "stop_name": "宮ノ下", "route_ids": ["8"]}}, {"type": "Feature", "geometry": {"type": "Point", "coordinates": [137.125587, 36.547405]}, "properties": {"stop_id": "103_1", "stop_name": "水口", "route_ids": ["8"]}}, {"type": "Feature", "geometry": {"type": "Point", "coordinates": [137.126622, 36.539344]}, "properties": {"stop_id": "104_1", "stop_name": "川倉口", "route_ids": ["8"]}}, {"type": "Feature", "geometry": {"type": "Point", "coordinates": [137.127104, 36.5356]}, "properties": {"stop_id": "105_1", "stop_name": "川倉", "route_ids": ["8"]}}, {"type": "Feature", "geometry": {"type": "Point", "coordinates": [137.118941, 36.518849]}, "properties": {"stop_id": "106_1", "stop_name": "広畑", "route_ids": ["8"]}}, {"type": "Feature", "geometry": {"type": "Point", "coordinates": [137.128902, 36.506291]}, "properties": {"stop_id": "107_1", "stop_name": "西松瀬", "route_ids": ["8"]}}, {"type": "Feature", "geometry": {"type": "Point", "coordinates": [137.136361, 36.57765]}, "properties": {"stop_id": "108_1", "stop_name": "東町", "route_ids": ["1", "10", "11", "4", "7", "8"]}}, {"type": "Feature", "geometry": {"type": "Point", "coordinates": [137.118858, 36.591471]}, "properties": {"stop_id": "109_1", "stop_name": "日東メディック前", "route_ids": ["6"]}}, {"type": "Feature", "geometry": {"type": "Point", "coordinates": [137.114362, 36.595054]}, "properties": {"stop_id": "110_1", "stop_name": "喜楽鉱業前", "route_ids": ["6"]}}, {"type": "Feature", "geometry": {"type": "Point", "coordinates": [137.117644, 36.595878]}, "properties": {"stop_id": "111_1", "stop_name": "アクティブファーマ前", "route_ids": ["6"]}}, {"type": "Feature", "geometry": {"type": "Point", "coordinates": [137.12005, 36.597254]}, "properties": {"stop_id": "112_1", "stop_name": "ユースキン製薬前", "route_ids": ["6"]}}, {"type": "Feature", "geometry": {"type": "Point", "coordinates": [137.120097, 36.598641]}, "properties": {"stop_id": "113_1", "stop_name": "河村産業所前", "route_ids": ["6"]}}, {"type": "Feature", "geometry": {"type": "Point", "coordinates": [137.122343, 36.599413]}, "properties": {"stop_id": "114_1", "stop_name": "香栄興業前", "route_ids": ["6"]}}, {"type": "Feature", "geometry": {"type": "Point", "coordinates": [137.161306, 36.612336]}, "properties": {"stop_id": "116_1", "stop_name": "杉田", "route_ids": ["2"]}}, {"type": "Feature", "geometry": {"type": "Point", "coordinates": [137.166292, 36.60025]}, "properties": {"stop_id": "117_1", "stop_name": "滅鬼（西）", "route_ids": ["4"]}}, {"type": "Feature", "geometry": {"type": "Point", "coordinates": [137.134583, 36.584932]}, "properties": {"stop_id": "118_1", "stop_name": "旧八尾中学校前", "route_ids": ["4", "5"]}}, {"type": "Feature", "geometry": {"type": "Point", "coordinates": [137.17516, 36.597815]}, "properties": {"stop_id": "119_1", "stop_name": "滅鬼", "route_ids": ["2"]}}, {"type": "Feature", "geometry": {"type": "Point", "coordinates": [137.130837, 36.619496]}, "properties": {"stop_id": "121_1", "stop_name": "奥田（東）", "route_ids": ["4", "5"]}}, {"type": "Feature", "geometry": {"type": "Point", "coordinates": [137.125481, 36.598334]}, "properties": {"stop_id": "122_1", "stop_name": "団地北", "route_ids": ["6"]}}, {"type": "Feature", "geometry": {"type": "Point", "coordinates": [137.149462, 36.594716]}, "properties": {"stop_id": "123_1", "stop_name": "中井田", "route_ids": ["1"]}}, {"type": "Feature", "geometry": {"type": "Point", "coordinates": [137.164152, 36.615228]}, "properties": {"stop_id": "126_1", "stop_name": "小泉定", "route_ids": ["2"]}}, {"type": "Feature", "geometry": {"type": "Point", "coordinates": [137.141424, 36.58627]}, "properties": {"stop_id": "128_1", "stop_name": "福島第二", "route_ids": ["1", "10", "11", "4", "5", "7", "8", "9"]}}, {"type": "Feature", "geometry": {"type": "Point", "coordinates": [137.146222, 36.582862]}, "properties": {"stop_id": "129_1", "stop_name": "雇用促進住宅下", "route_ids": ["9"]}}, {"type": "Feature", "geometry": {"type": "Point", "coordinates": [137.1552, 36.573285]}, "properties": {"stop_id": "130_1", "stop_name": "村杉", "route_ids": ["9"]}}, {"type": "Feature", "geometry": {"type": "Point", "coordinates": [137.14042, 36.569328]}, "properties": {"stop_id": "131_1", "stop_name": "ゆうゆう館", "route_ids": ["4"]}}, {"type": "Feature", "geometry": {"type": "Point", "coordinates": [137.127635, 36.567284]}, "properties": {"stop_id": "132_1", "stop_name": "葛坂橋", "route_ids": ["10", "8"]}}, {"type": "Feature", "geometry": {"type": "Point", "coordinates": [137.103388, 36.564682]}, "properties": {"stop_id": "133_1", "stop_name": "細滝", "route_ids": ["7"]}}, {"type": "Feature", "geometry": {"type": "Point", "coordinates": [137.128472, 36.560939]}, "properties": {"stop_id": "134_1", "stop_name": "八十島", "route_ids": ["10", "8"]}}, {"type": "Feature", "geometry": {"type": "Point", "coordinates": [137.163255, 36.545111]}, "properties": {"stop_id": "135_1", "stop_name": "宮腰", "route_ids": ["9"]}}, {"type": "Feature", "geometry": {"type": "Point", "coordinates": [137.118752, 36.524827]}, "properties": {"stop_id": "136_1", "stop_name": "布谷口", "route_ids": ["8"]}}, {"type": "Feature", "geometry": {"type": "Point", "coordinates": [137.118128, 36.523084]}, "properties": {"stop_id": "137_1", "stop_name": "布谷", "route_ids": ["8"]}}, {"type": "Feature", "geometry": {"type": "Point", "coordinates": [137.118061, 36.516559]}, "properties": {"stop_id": "138_1", "stop_name": "旧広畑小学校前", "route_ids": ["8"]}}, {"type": "Feature", "geometry": {"type": "Point", "coordinates": [137.122529, 36.510974]}, "properties": {"stop_id": "139_1", "stop_name": "赤石", "route_ids": ["8"]}}, {"type": "Feature", "geometry": {"type": "Point", "coordinates": [137.125443, 36.53218]}, "properties": {"stop_id": "140_1", "stop_name": "川倉不動前", "route_ids": ["8"]}}, {"type": "Feature", "geometry": {"type": "Point", "coordinates": [137.125582, 36.550447]}, "properties": {"stop_id": "141_1", "stop_name": "野積園前", "route_ids": ["8"]}}, {"type": "Feature", "geometry": {"type": "Point", "coordinates": [137.113749, 36.547892]}, "properties": {"stop_id": "142_1", "stop_name": "大下", "route_ids": ["10"]}}, {"type": "Feature", "geometry": {"type": "Point", "coordinates": [137.099018, 36.529427]}, "properties": {"stop_id": "143_1", "stop_name": "三ツ松口", "route_ids": ["10"]}}, {"type": "Feature", "geometry": {"type": "Point", "coordinates": [137.09861, 36.52806]}, "properties": {"stop_id": "144_1", "stop_name": "三ツ松", "route_ids": ["10"]}}, {"type": "Feature", "geometry": {"type": "Point", "coordinates": [137.078914, 36.480166]}, "properties": {"stop_id": "146_1", "stop_name": "島地", "route_ids": ["10"]}}, {"type": "Feature", "geometry": {"type": "Point", "coordinates": [137.139193, 36.605593]}, "properties": {"stop_id": "147_1", "stop_name": "上高善寺", "route_ids": ["4", "5"]}}, {"type": "Feature", "geometry": {"type": "Point", "coordinates": [137.128223, 36.564565]}, "properties": {"stop_id": "148_1", "stop_name": "八尾スノーセンター前", "route_ids": ["10", "8"]}}, {"type": "Feature", "geometry": {"type": "Point", "coordinates": [137.140878, 36.554441]}, "properties": {"stop_id": "149_1", "stop_name": "茗ヶ原公民館前", "route_ids": ["11"]}}, {"type": "Feature", "geometry": {"type": "Point", "coordinates": [137.149473, 36.564585]}, "properties": {"stop_id": "150_1", "stop_name": "卯花地区センター前", "route_ids": ["11"]}}, {"type": "Feature", "geometry": {"type": "Point", "coordinates": [137.131235, 36.575473]}, "properties": {"stop_id": "18_2", "stop_name": "曳山展示館前", "route_ids": ["1", "10", "4", "7", "8"]}}, {"type": "Feature", "geometry": {"type": "Point", "coordinates": [137.133231, 36.576305]}, "properties": {"stop_id": "151_1", "stop_name": "公園前", "route_ids": ["1", "10", "7", "8"]}}, {"type": "Feature", "geometry": {"type": "Point", "coordinates": [137.141279, 36.58312]}, "properties": {"stop_id": "152_1", "stop_name": "眼鏡橋", "route_ids": ["1", "11"]}}, {"type": "Feature", "geometry": {"type": "Point", "coordinates": [137.1411, 36.583154]}, "properties": {"stop_id": "152_2", "stop_name": "眼鏡橋", "route_ids": ["10", "7", "8", "9"]}}, {"type": "Feature", "geometry": {"type": "Point", "coordinates": [137.141154, 36.583615]}, "properties": {"stop_id": "152_3", "stop_name": "眼鏡橋", "route_ids": ["10", "4", "7", "8", "9"]}}, {"type": "Feature", "geometry": {"type": "Point", "coordinates": [137.134346, 36.576977]}, "properties": {"stop_id": "17_2", "stop_name": "鏡町", "route_ids": ["10", "7", "8"]}}, {"type": "Feature", "geometry": {"type": "Point", "coordinates": [137.133241, 36.576236]}, "properties": {"stop_id": "151_2", "stop_name": "公園前", "route_ids": ["1", "10", "4", "7", "8"]}}, {"type": "Feature", "geometry": {"type": "Point", "coordinates": [137.153877, 36.575311]}, "properties": {"stop_id": "153_1", "stop_name": "黒瀬谷交流センター前", "route_ids": ["9"]}}, {"type": "Feature", "geometry": {"type": "Point", "coordinates": [137.138203, 36.592194]}, "properties": {"stop_id": "154_1", "stop_name": "八尾駅（東口）", "route_ids": ["1", "4", "5"]}}, {"type": "Feature", "geometry": {"type": "Point", "coordinates": [137.150209, 36.599753]}, "properties": {"stop_id": "155_1", "stop_name": "アルビス八尾店前", "route_ids": ["1", "5"]}}]}